header: 
  seq: 1
  stamp: 
    secs: 1679377097
    nsecs: 858297586
  frame_id: "imu_frame"
orientation: 
  x: 0.0
  y: 0.0
  z: 0.0
  w: 0.0
orientation_covariance: [-1.0, 0.0, 0.0, 0.0, 0.0, 0.0, 0.0, 0.0, 0.0]
angular_velocity: 
  x: 0.007129779338836669
  y: 0.000109255540847778
  z: -0.000739637756347656
angular_velocity_covariance: [0.01, 0.0, 0.0, 0.0, 0.01, 0.0, 0.0, 0.0, 0.01]
linear_acceleration: 
  x: 0.058713865280151364
  y: -0.04418744087219238
  z: 9.793404579162598
linear_acceleration_covariance: [0.01, 0.0, 0.0, 0.0, 0.01, 0.0, 0.0, 0.0, 0.01]
---
header: 
  seq: 2
  stamp: 
    secs: 1679377097
    nsecs: 883897542
  frame_id: "imu_frame"
orientation: 
  x: 0.0
  y: 0.0
  z: 0.0
  w: 0.0
orientation_covariance: [-1.0, 0.0, 0.0, 0.0, 0.0, 0.0, 0.0, 0.0, 0.0]
angular_velocity: 
  x: 0.006518914699554443
  y: 0.000414688158035278
  z: -0.001197787046432495
angular_velocity_covariance: [0.01, 0.0, 0.0, 0.0, 0.01, 0.0, 0.0, 0.0, 0.01]
linear_acceleration: 
  x: 0.06708875179290771
  y: -0.05316052436828613
  z: 9.784432411193848
linear_acceleration_covariance: [0.01, 0.0, 0.0, 0.0, 0.01, 0.0, 0.0, 0.0, 0.01]
---
header: 
  seq: 3
  stamp: 
    secs: 1679377097
    nsecs: 909780740
  frame_id: "imu_frame"
orientation: 
  x: 0.0
  y: 0.0
  z: 0.0
  w: 0.0
orientation_covariance: [-1.0, 0.0, 0.0, 0.0, 0.0, 0.0, 0.0, 0.0, 0.0]
angular_velocity: 
  x: 0.005908048629760742
  y: 0.000261971712112426
  z: -0.001197787046432495
angular_velocity_covariance: [0.01, 0.0, 0.0, 0.0, 0.01, 0.0, 0.0, 0.0, 0.01]
linear_acceleration: 
  x: 0.04435693740844727
  y: -0.058544373512268065
  z: 9.798788070678711
linear_acceleration_covariance: [0.01, 0.0, 0.0, 0.0, 0.01, 0.0, 0.0, 0.0, 0.01]
---
header: 
  seq: 4
  stamp: 
    secs: 1679377097
    nsecs: 935545444
  frame_id: "imu_frame"
orientation: 
  x: 0.0
  y: 0.0
  z: 0.0
  w: 0.0
orientation_covariance: [-1.0, 0.0, 0.0, 0.0, 0.0, 0.0, 0.0, 0.0, 0.0]
angular_velocity: 
  x: 0.007282495498657226
  y: -0.000196177291870117
  z: -0.001045070648193359
angular_velocity_covariance: [0.01, 0.0, 0.0, 0.0, 0.01, 0.0, 0.0, 0.0, 0.01]
linear_acceleration: 
  x: 0.05931207656860352
  y: -0.043589234352111816
  z: 9.791011810302734
linear_acceleration_covariance: [0.01, 0.0, 0.0, 0.0, 0.01, 0.0, 0.0, 0.0, 0.01]
---
header: 
  seq: 5
  stamp: 
    secs: 1679377097
    nsecs: 961870908
  frame_id: "imu_frame"
orientation: 
  x: 0.0
  y: 0.0
  z: 0.0
  w: 0.0
orientation_covariance: [-1.0, 0.0, 0.0, 0.0, 0.0, 0.0, 0.0, 0.0, 0.0]
angular_velocity: 
  x: 0.006977063179016113
  y: -4.3460869789123e-05
  z: -0.000586921787261962
angular_velocity_covariance: [0.01, 0.0, 0.0, 0.0, 0.01, 0.0, 0.0, 0.0, 0.01]
linear_acceleration: 
  x: 0.05213360786437988
  y: -0.054356932640075684
  z: 9.802377700805664
linear_acceleration_covariance: [0.01, 0.0, 0.0, 0.0, 0.01, 0.0, 0.0, 0.0, 0.01]
---
header: 
  seq: 6
  stamp: 
    secs: 1679377097
    nsecs: 987547874
  frame_id: "imu_frame"
orientation: 
  x: 0.0
  y: 0.0
  z: 0.0
  w: 0.0
orientation_covariance: [-1.0, 0.0, 0.0, 0.0, 0.0, 0.0, 0.0, 0.0, 0.0]
angular_velocity: 
  x: 0.005755333423614501
  y: 0.000872836971282958
  z: -0.000739637756347656
angular_velocity_covariance: [0.01, 0.0, 0.0, 0.0, 0.01, 0.0, 0.0, 0.0, 0.01]
linear_acceleration: 
  x: 0.0497407865524292
  y: -0.04418744087219238
  z: 9.793404579162598
linear_acceleration_covariance: [0.01, 0.0, 0.0, 0.0, 0.01, 0.0, 0.0, 0.0, 0.01]
---
header: 
  seq: 7
  stamp: 
    secs: 1679377098
    nsecs:  14045715
  frame_id: "imu_frame"
orientation: 
  x: 0.0
  y: 0.0
  z: 0.0
  w: 0.0
orientation_covariance: [-1.0, 0.0, 0.0, 0.0, 0.0, 0.0, 0.0, 0.0, 0.0]
angular_velocity: 
  x: 0.006213481426239013
  y: -0.000807042217254638
  z: -0.001197787046432495
angular_velocity_covariance: [0.01, 0.0, 0.0, 0.0, 0.01, 0.0, 0.0, 0.0, 0.01]
linear_acceleration: 
  x: 0.05931207656860352
  y: -0.048374881744384764
  z: 9.788619995117188
linear_acceleration_covariance: [0.01, 0.0, 0.0, 0.0, 0.01, 0.0, 0.0, 0.0, 0.01]
---
header: 
  seq: 8
  stamp: 
    secs: 1679377098
    nsecs:  39806604
  frame_id: "imu_frame"
orientation: 
  x: 0.0
  y: 0.0
  z: 0.0
  w: 0.0
orientation_covariance: [-1.0, 0.0, 0.0, 0.0, 0.0, 0.0, 0.0, 0.0, 0.0]
angular_velocity: 
  x: 0.005908048629760742
  y: 0.000261971712112426
  z: -0.001197787046432495
angular_velocity_covariance: [0.01, 0.0, 0.0, 0.0, 0.01, 0.0, 0.0, 0.0, 0.01]
linear_acceleration: 
  x: 0.04435693740844727
  y: -0.03700897216796875
  z: 9.80118179321289
linear_acceleration_covariance: [0.01, 0.0, 0.0, 0.0, 0.01, 0.0, 0.0, 0.0, 0.01]
---
header: 
  seq: 9
  stamp: 
    secs: 1679377098
    nsecs:  65835475
  frame_id: "imu_frame"
orientation: 
  x: 0.0
  y: 0.0
  z: 0.0
  w: 0.0
orientation_covariance: [-1.0, 0.0, 0.0, 0.0, 0.0, 0.0, 0.0, 0.0, 0.0]
angular_velocity: 
  x: 0.006366198062896728
  y: 0.00072012071609497
  z: -0.000128772568702697
angular_velocity_covariance: [0.01, 0.0, 0.0, 0.0, 0.01, 0.0, 0.0, 0.0, 0.01]
linear_acceleration: 
  x: 0.0575174617767334
  y: -0.048374881744384764
  z: 9.79699420928955
linear_acceleration_covariance: [0.01, 0.0, 0.0, 0.0, 0.01, 0.0, 0.0, 0.0, 0.01]
---
header: 
  seq: 10
  stamp: 
    secs: 1679377098
    nsecs:  91777801
  frame_id: "imu_frame"
orientation: 
  x: 0.0
  y: 0.0
  z: 0.0
  w: 0.0
orientation_covariance: [-1.0, 0.0, 0.0, 0.0, 0.0, 0.0, 0.0, 0.0, 0.0]
angular_velocity: 
  x: 0.006366198062896728
  y: -0.000348893451690673
  z: -0.000586921787261962
angular_velocity_covariance: [0.01, 0.0, 0.0, 0.0, 0.01, 0.0, 0.0, 0.0, 0.01]
linear_acceleration: 
  x: 0.05452643394470215
  y: -0.05316052436828613
  z: 9.791610717773438
linear_acceleration_covariance: [0.01, 0.0, 0.0, 0.0, 0.01, 0.0, 0.0, 0.0, 0.01]
---
header: 
  seq: 11
  stamp: 
    secs: 1679377098
    nsecs: 117588281
  frame_id: "imu_frame"
orientation: 
  x: 0.0
  y: 0.0
  z: 0.0
  w: 0.0
orientation_covariance: [-1.0, 0.0, 0.0, 0.0, 0.0, 0.0, 0.0, 0.0, 0.0]
angular_velocity: 
  x: 0.006060764789581298
  y: 0.000109255540847778
  z: -0.000281488990783691
angular_velocity_covariance: [0.01, 0.0, 0.0, 0.0, 0.01, 0.0, 0.0, 0.0, 0.01]
linear_acceleration: 
  x: 0.0515354061126709
  y: -0.05316052436828613
  z: 9.805967330932617
linear_acceleration_covariance: [0.01, 0.0, 0.0, 0.0, 0.01, 0.0, 0.0, 0.0, 0.01]
---
header: 
  seq: 12
  stamp: 
    secs: 1679377098
    nsecs: 143278121
  frame_id: "imu_frame"
orientation: 
  x: 0.0
  y: 0.0
  z: 0.0
  w: 0.0
orientation_covariance: [-1.0, 0.0, 0.0, 0.0, 0.0, 0.0, 0.0, 0.0, 0.0]
angular_velocity: 
  x: 0.006060764789581298
  y: 0.00072012071609497
  z: -0.00135050344467163
angular_velocity_covariance: [0.01, 0.0, 0.0, 0.0, 0.01, 0.0, 0.0, 0.0, 0.01]
linear_acceleration: 
  x: 0.05632104873657227
  y: -0.049571290016174316
  z: 9.795199394226074
linear_acceleration_covariance: [0.01, 0.0, 0.0, 0.0, 0.01, 0.0, 0.0, 0.0, 0.01]
---
header: 
  seq: 13
  stamp: 
    secs: 1679377098
    nsecs: 169469118
  frame_id: "imu_frame"
orientation: 
  x: 0.0
  y: 0.0
  z: 0.0
  w: 0.0
orientation_covariance: [-1.0, 0.0, 0.0, 0.0, 0.0, 0.0, 0.0, 0.0, 0.0]
angular_velocity: 
  x: 0.005297183990478515
  y: -0.000348893451690673
  z: -0.000281488990783691
angular_velocity_covariance: [0.01, 0.0, 0.0, 0.0, 0.01, 0.0, 0.0, 0.0, 0.01]
linear_acceleration: 
  x: 0.05991028785705566
  y: -0.054356932640075684
  z: 9.802377700805664
linear_acceleration_covariance: [0.01, 0.0, 0.0, 0.0, 0.01, 0.0, 0.0, 0.0, 0.01]
---
header: 
  seq: 14
  stamp: 
    secs: 1679377098
    nsecs: 195474624
  frame_id: "imu_frame"
orientation: 
  x: 0.0
  y: 0.0
  z: 0.0
  w: 0.0
orientation_covariance: [-1.0, 0.0, 0.0, 0.0, 0.0, 0.0, 0.0, 0.0, 0.0]
angular_velocity: 
  x: 0.005449899673461914
  y: 0.000414688158035278
  z: 2.3943371772766e-05
angular_velocity_covariance: [0.01, 0.0, 0.0, 0.0, 0.01, 0.0, 0.0, 0.0, 0.01]
linear_acceleration: 
  x: 0.05213360786437988
  y: -0.04418744087219238
  z: 9.80417251586914
linear_acceleration_covariance: [0.01, 0.0, 0.0, 0.0, 0.01, 0.0, 0.0, 0.0, 0.01]
---
header: 
  seq: 15
  stamp: 
    secs: 1679377098
    nsecs: 222043752
  frame_id: "imu_frame"
orientation: 
  x: 0.0
  y: 0.0
  z: 0.0
  w: 0.0
orientation_covariance: [-1.0, 0.0, 0.0, 0.0, 0.0, 0.0, 0.0, 0.0, 0.0]
angular_velocity: 
  x: 0.006518914699554443
  y: 0.000414688158035278
  z: -0.00135050344467163
angular_velocity_covariance: [0.01, 0.0, 0.0, 0.0, 0.01, 0.0, 0.0, 0.0, 0.01]
linear_acceleration: 
  x: 0.05991028785705566
  y: -0.0579461669921875
  z: 9.797592163085938
linear_acceleration_covariance: [0.01, 0.0, 0.0, 0.0, 0.01, 0.0, 0.0, 0.0, 0.01]
---
header: 
  seq: 16
  stamp: 
    secs: 1679377098
    nsecs: 246896028
  frame_id: "imu_frame"
orientation: 
  x: 0.0
  y: 0.0
  z: 0.0
  w: 0.0
orientation_covariance: [-1.0, 0.0, 0.0, 0.0, 0.0, 0.0, 0.0, 0.0, 0.0]
angular_velocity: 
  x: 0.006213481426239013
  y: -0.000501609897613525
  z: -0.001045070648193359
angular_velocity_covariance: [0.01, 0.0, 0.0, 0.0, 0.01, 0.0, 0.0, 0.0, 0.01]
linear_acceleration: 
  x: 0.05392822742462158
  y: -0.05495513916015625
  z: 9.794601440429688
linear_acceleration_covariance: [0.01, 0.0, 0.0, 0.0, 0.01, 0.0, 0.0, 0.0, 0.01]
---
header: 
  seq: 17
  stamp: 
    secs: 1679377098
    nsecs: 269557714
  frame_id: "imu_frame"
orientation: 
  x: 0.0
  y: 0.0
  z: 0.0
  w: 0.0
orientation_covariance: [-1.0, 0.0, 0.0, 0.0, 0.0, 0.0, 0.0, 0.0, 0.0]
angular_velocity: 
  x: 0.006671630859375
  y: -0.000654326057434082
  z: -0.000892354583740234
angular_velocity_covariance: [0.01, 0.0, 0.0, 0.0, 0.01, 0.0, 0.0, 0.0, 0.01]
linear_acceleration: 
  x: 0.05392822742462158
  y: -0.051365904808044434
  z: 9.800583839416504
linear_acceleration_covariance: [0.01, 0.0, 0.0, 0.0, 0.01, 0.0, 0.0, 0.0, 0.01]
---
header: 
  seq: 18
  stamp: 
    secs: 1679377098
    nsecs: 295781850
  frame_id: "imu_frame"
orientation: 
  x: 0.0
  y: 0.0
  z: 0.0
  w: 0.0
orientation_covariance: [-1.0, 0.0, 0.0, 0.0, 0.0, 0.0, 0.0, 0.0, 0.0]
angular_velocity: 
  x: 0.006518914699554443
  y: 0.000261971712112426
  z: -0.000892354583740234
angular_velocity_covariance: [0.01, 0.0, 0.0, 0.0, 0.01, 0.0, 0.0, 0.0, 0.01]
linear_acceleration: 
  x: 0.058713865280151364
  y: -0.05016949653625488
  z: 9.793404579162598
linear_acceleration_covariance: [0.01, 0.0, 0.0, 0.0, 0.01, 0.0, 0.0, 0.0, 0.01]
---
header: 
  seq: 19
  stamp: 
    secs: 1679377098
    nsecs: 324438810
  frame_id: "imu_frame"
orientation: 
  x: 0.0
  y: 0.0
  z: 0.0
  w: 0.0
orientation_covariance: [-1.0, 0.0, 0.0, 0.0, 0.0, 0.0, 0.0, 0.0, 0.0]
angular_velocity: 
  x: 0.007740645408630371
  y: -4.3460869789123e-05
  z: -0.001045070648193359
angular_velocity_covariance: [0.01, 0.0, 0.0, 0.0, 0.01, 0.0, 0.0, 0.0, 0.01]
linear_acceleration: 
  x: 0.0575174617767334
  y: -0.0459820556640625
  z: 9.785029411315918
linear_acceleration_covariance: [0.01, 0.0, 0.0, 0.0, 0.01, 0.0, 0.0, 0.0, 0.01]
---
header: 
  seq: 20
  stamp: 
    secs: 1679377098
    nsecs: 351647138
  frame_id: "imu_frame"
orientation: 
  x: 0.0
  y: 0.0
  z: 0.0
  w: 0.0
orientation_covariance: [-1.0, 0.0, 0.0, 0.0, 0.0, 0.0, 0.0, 0.0, 0.0]
angular_velocity: 
  x: 0.005755333423614501
  y: 0.000567404508590698
  z: -0.000739637756347656
angular_velocity_covariance: [0.01, 0.0, 0.0, 0.0, 0.01, 0.0, 0.0, 0.0, 0.01]
linear_acceleration: 
  x: 0.061106691360473635
  y: -0.04897308349609375
  z: 9.80417251586914
linear_acceleration_covariance: [0.01, 0.0, 0.0, 0.0, 0.01, 0.0, 0.0, 0.0, 0.01]
---
header: 
  seq: 21
  stamp: 
    secs: 1679377098
    nsecs: 376155853
  frame_id: "imu_frame"
orientation: 
  x: 0.0
  y: 0.0
  z: 0.0
  w: 0.0
orientation_covariance: [-1.0, 0.0, 0.0, 0.0, 0.0, 0.0, 0.0, 0.0, 0.0]
angular_velocity: 
  x: 0.006671630859375
  y: -0.000196177291870117
  z: -0.000434205389022827
angular_velocity_covariance: [0.01, 0.0, 0.0, 0.0, 0.01, 0.0, 0.0, 0.0, 0.01]
linear_acceleration: 
  x: 0.042562317848205564
  y: -0.0579461669921875
  z: 9.792806625366211
linear_acceleration_covariance: [0.01, 0.0, 0.0, 0.0, 0.01, 0.0, 0.0, 0.0, 0.01]
---
header: 
  seq: 22
  stamp: 
    secs: 1679377098
    nsecs: 402193069
  frame_id: "imu_frame"
orientation: 
  x: 0.0
  y: 0.0
  z: 0.0
  w: 0.0
orientation_covariance: [-1.0, 0.0, 0.0, 0.0, 0.0, 0.0, 0.0, 0.0, 0.0]
angular_velocity: 
  x: 0.006977063179016113
  y: 0.00072012071609497
  z: -0.000586921787261962
angular_velocity_covariance: [0.01, 0.0, 0.0, 0.0, 0.01, 0.0, 0.0, 0.0, 0.01]
linear_acceleration: 
  x: 0.0497407865524292
  y: -0.04119640827178955
  z: 9.797592163085938
linear_acceleration_covariance: [0.01, 0.0, 0.0, 0.0, 0.01, 0.0, 0.0, 0.0, 0.01]
---
header: 
  seq: 23
  stamp: 
    secs: 1679377098
    nsecs: 428083896
  frame_id: "imu_frame"
orientation: 
  x: 0.0
  y: 0.0
  z: 0.0
  w: 0.0
orientation_covariance: [-1.0, 0.0, 0.0, 0.0, 0.0, 0.0, 0.0, 0.0, 0.0]
angular_velocity: 
  x: 0.006366198062896728
  y: -0.000654326057434082
  z: -0.000586921787261962
angular_velocity_covariance: [0.01, 0.0, 0.0, 0.0, 0.01, 0.0, 0.0, 0.0, 0.01]
linear_acceleration: 
  x: 0.05333001613616943
  y: -0.05375872611999512
  z: 9.80417251586914
linear_acceleration_covariance: [0.01, 0.0, 0.0, 0.0, 0.01, 0.0, 0.0, 0.0, 0.01]
---
header: 
  seq: 24
  stamp: 
    secs: 1679377098
    nsecs: 454446792
  frame_id: "imu_frame"
orientation: 
  x: 0.0
  y: 0.0
  z: 0.0
  w: 0.0
orientation_covariance: [-1.0, 0.0, 0.0, 0.0, 0.0, 0.0, 0.0, 0.0, 0.0]
angular_velocity: 
  x: 0.006671630859375
  y: -0.000501609897613525
  z: -0.001045070648193359
angular_velocity_covariance: [0.01, 0.0, 0.0, 0.0, 0.01, 0.0, 0.0, 0.0, 0.01]
linear_acceleration: 
  x: 0.05333001613616943
  y: -0.06273181438446045
  z: 9.805967330932617
linear_acceleration_covariance: [0.01, 0.0, 0.0, 0.0, 0.01, 0.0, 0.0, 0.0, 0.01]
---
header: 
  seq: 25
  stamp: 
    secs: 1679377098
    nsecs: 481493234
  frame_id: "imu_frame"
orientation: 
  x: 0.0
  y: 0.0
  z: 0.0
  w: 0.0
orientation_covariance: [-1.0, 0.0, 0.0, 0.0, 0.0, 0.0, 0.0, 0.0, 0.0]
angular_velocity: 
  x: 0.006824345588684082
  y: -0.000501609897613525
  z: 2.3943371772766e-05
angular_velocity_covariance: [0.01, 0.0, 0.0, 0.0, 0.01, 0.0, 0.0, 0.0, 0.01]
linear_acceleration: 
  x: 0.055124635696411135
  y: -0.048374881744384764
  z: 9.799386978149414
linear_acceleration_covariance: [0.01, 0.0, 0.0, 0.0, 0.01, 0.0, 0.0, 0.0, 0.01]
---
header: 
  seq: 26
  stamp: 
    secs: 1679377098
    nsecs: 506310224
  frame_id: "imu_frame"
orientation: 
  x: 0.0
  y: 0.0
  z: 0.0
  w: 0.0
orientation_covariance: [-1.0, 0.0, 0.0, 0.0, 0.0, 0.0, 0.0, 0.0, 0.0]
angular_velocity: 
  x: 0.006518914699554443
  y: -0.000348893451690673
  z: -0.000892354583740234
angular_velocity_covariance: [0.01, 0.0, 0.0, 0.0, 0.01, 0.0, 0.0, 0.0, 0.01]
linear_acceleration: 
  x: 0.04435693740844727
  y: -0.05734796524047851
  z: 9.794601440429688
linear_acceleration_covariance: [0.01, 0.0, 0.0, 0.0, 0.01, 0.0, 0.0, 0.0, 0.01]
---
header: 
  seq: 27
  stamp: 
    secs: 1679377098
    nsecs: 531936883
  frame_id: "imu_frame"
orientation: 
  x: 0.0
  y: 0.0
  z: 0.0
  w: 0.0
orientation_covariance: [-1.0, 0.0, 0.0, 0.0, 0.0, 0.0, 0.0, 0.0, 0.0]
angular_velocity: 
  x: 0.005755333423614501
  y: -0.000196177291870117
  z: -0.001045070648193359
angular_velocity_covariance: [0.01, 0.0, 0.0, 0.0, 0.01, 0.0, 0.0, 0.0, 0.01]
linear_acceleration: 
  x: 0.058115668296813965
  y: -0.052562322616577145
  z: 9.790413856506348
linear_acceleration_covariance: [0.01, 0.0, 0.0, 0.0, 0.01, 0.0, 0.0, 0.0, 0.01]
---
header: 
  seq: 28
  stamp: 
    secs: 1679377098
    nsecs: 558036565
  frame_id: "imu_frame"
orientation: 
  x: 0.0
  y: 0.0
  z: 0.0
  w: 0.0
orientation_covariance: [-1.0, 0.0, 0.0, 0.0, 0.0, 0.0, 0.0, 0.0, 0.0]
angular_velocity: 
  x: 0.007129779338836669
  y: 0.000261971712112426
  z: -0.001503219842910766
angular_velocity_covariance: [0.01, 0.0, 0.0, 0.0, 0.01, 0.0, 0.0, 0.0, 0.01]
linear_acceleration: 
  x: 0.058115668296813965
  y: -0.051365904808044434
  z: 9.7999849319458
linear_acceleration_covariance: [0.01, 0.0, 0.0, 0.0, 0.01, 0.0, 0.0, 0.0, 0.01]
---
header: 
  seq: 29
  stamp: 
    secs: 1679377098
    nsecs: 585206270
  frame_id: "imu_frame"
orientation: 
  x: 0.0
  y: 0.0
  z: 0.0
  w: 0.0
orientation_covariance: [-1.0, 0.0, 0.0, 0.0, 0.0, 0.0, 0.0, 0.0, 0.0]
angular_velocity: 
  x: 0.005908048629760742
  y: 0.000109255540847778
  z: -0.00135050344467163
angular_velocity_covariance: [0.01, 0.0, 0.0, 0.0, 0.01, 0.0, 0.0, 0.0, 0.01]
linear_acceleration: 
  x: 0.05632104873657227
  y: -0.05495513916015625
  z: 9.792208671569824
linear_acceleration_covariance: [0.01, 0.0, 0.0, 0.0, 0.01, 0.0, 0.0, 0.0, 0.01]
---
header: 
  seq: 30
  stamp: 
    secs: 1679377098
    nsecs: 609987735
  frame_id: "imu_frame"
orientation: 
  x: 0.0
  y: 0.0
  z: 0.0
  w: 0.0
orientation_covariance: [-1.0, 0.0, 0.0, 0.0, 0.0, 0.0, 0.0, 0.0, 0.0]
angular_velocity: 
  x: 0.005908048629760742
  y: 0.000261971712112426
  z: -0.001045070648193359
angular_velocity_covariance: [0.01, 0.0, 0.0, 0.0, 0.01, 0.0, 0.0, 0.0, 0.01]
linear_acceleration: 
  x: 0.04316052436828613
  y: -0.05016949653625488
  z: 9.813145637512207
linear_acceleration_covariance: [0.01, 0.0, 0.0, 0.0, 0.01, 0.0, 0.0, 0.0, 0.01]
---
header: 
  seq: 31
  stamp: 
    secs: 1679377098
    nsecs: 636105060
  frame_id: "imu_frame"
orientation: 
  x: 0.0
  y: 0.0
  z: 0.0
  w: 0.0
orientation_covariance: [-1.0, 0.0, 0.0, 0.0, 0.0, 0.0, 0.0, 0.0, 0.0]
angular_velocity: 
  x: 0.005755333423614501
  y: 0.000261971712112426
  z: -0.000586921787261962
angular_velocity_covariance: [0.01, 0.0, 0.0, 0.0, 0.01, 0.0, 0.0, 0.0, 0.01]
linear_acceleration: 
  x: 0.04495513916015625
  y: -0.0633300256729126
  z: 9.795797348022461
linear_acceleration_covariance: [0.01, 0.0, 0.0, 0.0, 0.01, 0.0, 0.0, 0.0, 0.01]
---
header: 
  seq: 32
  stamp: 
    secs: 1679377098
    nsecs: 662306785
  frame_id: "imu_frame"
orientation: 
  x: 0.0
  y: 0.0
  z: 0.0
  w: 0.0
orientation_covariance: [-1.0, 0.0, 0.0, 0.0, 0.0, 0.0, 0.0, 0.0, 0.0]
angular_velocity: 
  x: 0.007282495498657226
  y: 0.000261971712112426
  z: 2.3943371772766e-05
angular_velocity_covariance: [0.01, 0.0, 0.0, 0.0, 0.01, 0.0, 0.0, 0.0, 0.01]
linear_acceleration: 
  x: 0.06589233875274658
  y: -0.056749763488769533
  z: 9.798190116882324
linear_acceleration_covariance: [0.01, 0.0, 0.0, 0.0, 0.01, 0.0, 0.0, 0.0, 0.01]
---
header: 
  seq: 33
  stamp: 
    secs: 1679377098
    nsecs: 687667369
  frame_id: "imu_frame"
orientation: 
  x: 0.0
  y: 0.0
  z: 0.0
  w: 0.0
orientation_covariance: [-1.0, 0.0, 0.0, 0.0, 0.0, 0.0, 0.0, 0.0, 0.0]
angular_velocity: 
  x: 0.006671630859375
  y: -0.000501609897613525
  z: 2.3943371772766e-05
angular_velocity_covariance: [0.01, 0.0, 0.0, 0.0, 0.01, 0.0, 0.0, 0.0, 0.01]
linear_acceleration: 
  x: 0.055124635696411135
  y: -0.05495513916015625
  z: 9.797592163085938
linear_acceleration_covariance: [0.01, 0.0, 0.0, 0.0, 0.01, 0.0, 0.0, 0.0, 0.01]
---
header: 
  seq: 34
  stamp: 
    secs: 1679377098
    nsecs: 714074373
  frame_id: "imu_frame"
orientation: 
  x: 0.0
  y: 0.0
  z: 0.0
  w: 0.0
orientation_covariance: [-1.0, 0.0, 0.0, 0.0, 0.0, 0.0, 0.0, 0.0, 0.0]
angular_velocity: 
  x: 0.005449899673461914
  y: 0.00072012071609497
  z: -0.001197787046432495
angular_velocity_covariance: [0.01, 0.0, 0.0, 0.0, 0.01, 0.0, 0.0, 0.0, 0.01]
linear_acceleration: 
  x: 0.04734796524047852
  y: -0.04059820652008057
  z: 9.802377700805664
linear_acceleration_covariance: [0.01, 0.0, 0.0, 0.0, 0.01, 0.0, 0.0, 0.0, 0.01]
---
header: 
  seq: 35
  stamp: 
    secs: 1679377098
    nsecs: 740002155
  frame_id: "imu_frame"
orientation: 
  x: 0.0
  y: 0.0
  z: 0.0
  w: 0.0
orientation_covariance: [-1.0, 0.0, 0.0, 0.0, 0.0, 0.0, 0.0, 0.0, 0.0]
angular_velocity: 
  x: 0.005908048629760742
  y: 0.000567404508590698
  z: -0.000892354583740234
angular_velocity_covariance: [0.01, 0.0, 0.0, 0.0, 0.01, 0.0, 0.0, 0.0, 0.01]
linear_acceleration: 
  x: 0.05931207656860352
  y: -0.05615155696868896
  z: 9.793404579162598
linear_acceleration_covariance: [0.01, 0.0, 0.0, 0.0, 0.01, 0.0, 0.0, 0.0, 0.01]
---
header: 
  seq: 36
  stamp: 
    secs: 1679377098
    nsecs: 765634536
  frame_id: "imu_frame"
orientation: 
  x: 0.0
  y: 0.0
  z: 0.0
  w: 0.0
orientation_covariance: [-1.0, 0.0, 0.0, 0.0, 0.0, 0.0, 0.0, 0.0, 0.0]
angular_velocity: 
  x: 0.006213481426239013
  y: 0.000109255540847778
  z: -0.001045070648193359
angular_velocity_covariance: [0.01, 0.0, 0.0, 0.0, 0.01, 0.0, 0.0, 0.0, 0.01]
linear_acceleration: 
  x: 0.058713865280151364
  y: -0.05076770305633545
  z: 9.785029411315918
linear_acceleration_covariance: [0.01, 0.0, 0.0, 0.0, 0.01, 0.0, 0.0, 0.0, 0.01]
---
header: 
  seq: 37
  stamp: 
    secs: 1679377098
    nsecs: 791403532
  frame_id: "imu_frame"
orientation: 
  x: 0.0
  y: 0.0
  z: 0.0
  w: 0.0
orientation_covariance: [-1.0, 0.0, 0.0, 0.0, 0.0, 0.0, 0.0, 0.0, 0.0]
angular_velocity: 
  x: 0.006366198062896728
  y: -0.000654326057434082
  z: -0.000434205389022827
angular_velocity_covariance: [0.01, 0.0, 0.0, 0.0, 0.01, 0.0, 0.0, 0.0, 0.01]
linear_acceleration: 
  x: 0.0575174617767334
  y: -0.051365904808044434
  z: 9.7940034866333
linear_acceleration_covariance: [0.01, 0.0, 0.0, 0.0, 0.01, 0.0, 0.0, 0.0, 0.01]
---
header: 
  seq: 38
  stamp: 
    secs: 1679377098
    nsecs: 817590951
  frame_id: "imu_frame"
orientation: 
  x: 0.0
  y: 0.0
  z: 0.0
  w: 0.0
orientation_covariance: [-1.0, 0.0, 0.0, 0.0, 0.0, 0.0, 0.0, 0.0, 0.0]
angular_velocity: 
  x: 0.005755333423614501
  y: -0.000348893451690673
  z: -0.000739637756347656
angular_velocity_covariance: [0.01, 0.0, 0.0, 0.0, 0.01, 0.0, 0.0, 0.0, 0.01]
linear_acceleration: 
  x: 0.03717846870422363
  y: -0.04897308349609375
  z: 9.785029411315918
linear_acceleration_covariance: [0.01, 0.0, 0.0, 0.0, 0.01, 0.0, 0.0, 0.0, 0.01]
---
header: 
  seq: 39
  stamp: 
    secs: 1679377098
    nsecs: 843656539
  frame_id: "imu_frame"
orientation: 
  x: 0.0
  y: 0.0
  z: 0.0
  w: 0.0
orientation_covariance: [-1.0, 0.0, 0.0, 0.0, 0.0, 0.0, 0.0, 0.0, 0.0]
angular_velocity: 
  x: 0.006366198062896728
  y: 0.000567404508590698
  z: -0.000434205389022827
angular_velocity_covariance: [0.01, 0.0, 0.0, 0.0, 0.01, 0.0, 0.0, 0.0, 0.01]
linear_acceleration: 
  x: 0.05213360786437988
  y: -0.05316052436828613
  z: 9.798190116882324
linear_acceleration_covariance: [0.01, 0.0, 0.0, 0.0, 0.01, 0.0, 0.0, 0.0, 0.01]
---
header: 
  seq: 40
  stamp: 
    secs: 1679377098
    nsecs: 869600534
  frame_id: "imu_frame"
orientation: 
  x: 0.0
  y: 0.0
  z: 0.0
  w: 0.0
orientation_covariance: [-1.0, 0.0, 0.0, 0.0, 0.0, 0.0, 0.0, 0.0, 0.0]
angular_velocity: 
  x: 0.006366198062896728
  y: -0.000348893451690673
  z: -0.000128772568702697
angular_velocity_covariance: [0.01, 0.0, 0.0, 0.0, 0.01, 0.0, 0.0, 0.0, 0.01]
linear_acceleration: 
  x: 0.061106691360473635
  y: -0.05316052436828613
  z: 9.800583839416504
linear_acceleration_covariance: [0.01, 0.0, 0.0, 0.0, 0.01, 0.0, 0.0, 0.0, 0.01]
---
header: 
  seq: 41
  stamp: 
    secs: 1679377098
    nsecs: 895633459
  frame_id: "imu_frame"
orientation: 
  x: 0.0
  y: 0.0
  z: 0.0
  w: 0.0
orientation_covariance: [-1.0, 0.0, 0.0, 0.0, 0.0, 0.0, 0.0, 0.0, 0.0]
angular_velocity: 
  x: 0.005908048629760742
  y: 0.000261971712112426
  z: -0.001197787046432495
angular_velocity_covariance: [0.01, 0.0, 0.0, 0.0, 0.01, 0.0, 0.0, 0.0, 0.01]
linear_acceleration: 
  x: 0.058115668296813965
  y: -0.05734796524047851
  z: 9.7940034866333
linear_acceleration_covariance: [0.01, 0.0, 0.0, 0.0, 0.01, 0.0, 0.0, 0.0, 0.01]
---
header: 
  seq: 42
  stamp: 
    secs: 1679377098
    nsecs: 921301364
  frame_id: "imu_frame"
orientation: 
  x: 0.0
  y: 0.0
  z: 0.0
  w: 0.0
orientation_covariance: [-1.0, 0.0, 0.0, 0.0, 0.0, 0.0, 0.0, 0.0, 0.0]
angular_velocity: 
  x: 0.006824345588684082
  y: 0.00072012071609497
  z: -0.001197787046432495
angular_velocity_covariance: [0.01, 0.0, 0.0, 0.0, 0.01, 0.0, 0.0, 0.0, 0.01]
linear_acceleration: 
  x: 0.05452643394470215
  y: -0.05016949653625488
  z: 9.795797348022461
linear_acceleration_covariance: [0.01, 0.0, 0.0, 0.0, 0.01, 0.0, 0.0, 0.0, 0.01]
---
header: 
  seq: 43
  stamp: 
    secs: 1679377098
    nsecs: 947766542
  frame_id: "imu_frame"
orientation: 
  x: 0.0
  y: 0.0
  z: 0.0
  w: 0.0
orientation_covariance: [-1.0, 0.0, 0.0, 0.0, 0.0, 0.0, 0.0, 0.0, 0.0]
angular_velocity: 
  x: 0.006824345588684082
  y: -0.000196177291870117
  z: -0.001045070648193359
angular_velocity_covariance: [0.01, 0.0, 0.0, 0.0, 0.01, 0.0, 0.0, 0.0, 0.01]
linear_acceleration: 
  x: 0.052731809616088865
  y: -0.05316052436828613
  z: 9.804770469665527
linear_acceleration_covariance: [0.01, 0.0, 0.0, 0.0, 0.01, 0.0, 0.0, 0.0, 0.01]
---
header: 
  seq: 44
  stamp: 
    secs: 1679377098
    nsecs: 973797559
  frame_id: "imu_frame"
orientation: 
  x: 0.0
  y: 0.0
  z: 0.0
  w: 0.0
orientation_covariance: [-1.0, 0.0, 0.0, 0.0, 0.0, 0.0, 0.0, 0.0, 0.0]
angular_velocity: 
  x: 0.006060764789581298
  y: -0.000807042217254638
  z: -0.000586921787261962
angular_velocity_covariance: [0.01, 0.0, 0.0, 0.0, 0.01, 0.0, 0.0, 0.0, 0.01]
linear_acceleration: 
  x: 0.0515354061126709
  y: -0.05076770305633545
  z: 9.798788070678711
linear_acceleration_covariance: [0.01, 0.0, 0.0, 0.0, 0.01, 0.0, 0.0, 0.0, 0.01]
---
header: 
  seq: 45
  stamp: 
    secs: 1679377098
    nsecs: 999237060
  frame_id: "imu_frame"
orientation: 
  x: 0.0
  y: 0.0
  z: 0.0
  w: 0.0
orientation_covariance: [-1.0, 0.0, 0.0, 0.0, 0.0, 0.0, 0.0, 0.0, 0.0]
angular_velocity: 
  x: 0.006060764789581298
  y: 0.000567404508590698
  z: -0.00135050344467163
angular_velocity_covariance: [0.01, 0.0, 0.0, 0.0, 0.01, 0.0, 0.0, 0.0, 0.01]
linear_acceleration: 
  x: 0.04734796524047852
  y: -0.046580262184143066
  z: 9.805967330932617
linear_acceleration_covariance: [0.01, 0.0, 0.0, 0.0, 0.01, 0.0, 0.0, 0.0, 0.01]
---
header: 
  seq: 46
  stamp: 
    secs: 1679377099
    nsecs:  25630950
  frame_id: "imu_frame"
orientation: 
  x: 0.0
  y: 0.0
  z: 0.0
  w: 0.0
orientation_covariance: [-1.0, 0.0, 0.0, 0.0, 0.0, 0.0, 0.0, 0.0, 0.0]
angular_velocity: 
  x: 0.007282495498657226
  y: -0.000807042217254638
  z: -0.001808652305603027
angular_velocity_covariance: [0.01, 0.0, 0.0, 0.0, 0.01, 0.0, 0.0, 0.0, 0.01]
linear_acceleration: 
  x: 0.06050848960876465
  y: -0.04179461479187012
  z: 9.791011810302734
linear_acceleration_covariance: [0.01, 0.0, 0.0, 0.0, 0.01, 0.0, 0.0, 0.0, 0.01]
---
header: 
  seq: 47
  stamp: 
    secs: 1679377099
    nsecs:  51527738
  frame_id: "imu_frame"
orientation: 
  x: 0.0
  y: 0.0
  z: 0.0
  w: 0.0
orientation_covariance: [-1.0, 0.0, 0.0, 0.0, 0.0, 0.0, 0.0, 0.0, 0.0]
angular_velocity: 
  x: 0.005908048629760742
  y: -0.000654326057434082
  z: -0.000739637756347656
angular_velocity_covariance: [0.01, 0.0, 0.0, 0.0, 0.01, 0.0, 0.0, 0.0, 0.01]
linear_acceleration: 
  x: 0.05093719959259033
  y: -0.0459820556640625
  z: 9.802377700805664
linear_acceleration_covariance: [0.01, 0.0, 0.0, 0.0, 0.01, 0.0, 0.0, 0.0, 0.01]
---
header: 
  seq: 48
  stamp: 
    secs: 1679377099
    nsecs:  77416419
  frame_id: "imu_frame"
orientation: 
  x: 0.0
  y: 0.0
  z: 0.0
  w: 0.0
orientation_covariance: [-1.0, 0.0, 0.0, 0.0, 0.0, 0.0, 0.0, 0.0, 0.0]
angular_velocity: 
  x: 0.005602616786956787
  y: 0.00072012071609497
  z: -0.000586921787261962
angular_velocity_covariance: [0.01, 0.0, 0.0, 0.0, 0.01, 0.0, 0.0, 0.0, 0.01]
linear_acceleration: 
  x: 0.0515354061126709
  y: -0.05375872611999512
  z: 9.7940034866333
linear_acceleration_covariance: [0.01, 0.0, 0.0, 0.0, 0.01, 0.0, 0.0, 0.0, 0.01]
---
header: 
  seq: 49
  stamp: 
    secs: 1679377099
    nsecs: 103438377
  frame_id: "imu_frame"
orientation: 
  x: 0.0
  y: 0.0
  z: 0.0
  w: 0.0
orientation_covariance: [-1.0, 0.0, 0.0, 0.0, 0.0, 0.0, 0.0, 0.0, 0.0]
angular_velocity: 
  x: 0.005755333423614501
  y: -0.00095975866317749
  z: -0.000281488990783691
angular_velocity_covariance: [0.01, 0.0, 0.0, 0.0, 0.01, 0.0, 0.0, 0.0, 0.01]
linear_acceleration: 
  x: 0.058115668296813965
  y: -0.051365904808044434
  z: 9.795797348022461
linear_acceleration_covariance: [0.01, 0.0, 0.0, 0.0, 0.01, 0.0, 0.0, 0.0, 0.01]
---
header: 
  seq: 50
  stamp: 
    secs: 1679377099
    nsecs: 129308462
  frame_id: "imu_frame"
orientation: 
  x: 0.0
  y: 0.0
  z: 0.0
  w: 0.0
orientation_covariance: [-1.0, 0.0, 0.0, 0.0, 0.0, 0.0, 0.0, 0.0, 0.0]
angular_velocity: 
  x: 0.007282495498657226
  y: 0.000109255540847778
  z: -0.000739637756347656
angular_velocity_covariance: [0.01, 0.0, 0.0, 0.0, 0.01, 0.0, 0.0, 0.0, 0.01]
linear_acceleration: 
  x: 0.0617048978805542
  y: -0.055553345680236815
  z: 9.784432411193848
linear_acceleration_covariance: [0.01, 0.0, 0.0, 0.0, 0.01, 0.0, 0.0, 0.0, 0.01]
---
header: 
  seq: 51
  stamp: 
    secs: 1679377099
    nsecs: 155311346
  frame_id: "imu_frame"
orientation: 
  x: 0.0
  y: 0.0
  z: 0.0
  w: 0.0
orientation_covariance: [-1.0, 0.0, 0.0, 0.0, 0.0, 0.0, 0.0, 0.0, 0.0]
angular_velocity: 
  x: 0.006518914699554443
  y: -0.000807042217254638
  z: -0.001045070648193359
angular_velocity_covariance: [0.01, 0.0, 0.0, 0.0, 0.01, 0.0, 0.0, 0.0, 0.01]
linear_acceleration: 
  x: 0.04914258003234863
  y: -0.05615155696868896
  z: 9.7999849319458
linear_acceleration_covariance: [0.01, 0.0, 0.0, 0.0, 0.01, 0.0, 0.0, 0.0, 0.01]
---
header: 
  seq: 52
  stamp: 
    secs: 1679377099
    nsecs: 181375741
  frame_id: "imu_frame"
orientation: 
  x: 0.0
  y: 0.0
  z: 0.0
  w: 0.0
orientation_covariance: [-1.0, 0.0, 0.0, 0.0, 0.0, 0.0, 0.0, 0.0, 0.0]
angular_velocity: 
  x: 0.006060764789581298
  y: -0.000196177291870117
  z: -0.001045070648193359
angular_velocity_covariance: [0.01, 0.0, 0.0, 0.0, 0.01, 0.0, 0.0, 0.0, 0.01]
linear_acceleration: 
  x: 0.052731809616088865
  y: -0.05495513916015625
  z: 9.80297565460205
linear_acceleration_covariance: [0.01, 0.0, 0.0, 0.0, 0.01, 0.0, 0.0, 0.0, 0.01]
---
header: 
  seq: 53
  stamp: 
    secs: 1679377099
    nsecs: 206466913
  frame_id: "imu_frame"
orientation: 
  x: 0.0
  y: 0.0
  z: 0.0
  w: 0.0
orientation_covariance: [-1.0, 0.0, 0.0, 0.0, 0.0, 0.0, 0.0, 0.0, 0.0]
angular_velocity: 
  x: 0.006824345588684082
  y: 0.000261971712112426
  z: -0.000739637756347656
angular_velocity_covariance: [0.01, 0.0, 0.0, 0.0, 0.01, 0.0, 0.0, 0.0, 0.01]
linear_acceleration: 
  x: 0.05572284698486328
  y: -0.05016949653625488
  z: 9.798190116882324
linear_acceleration_covariance: [0.01, 0.0, 0.0, 0.0, 0.01, 0.0, 0.0, 0.0, 0.01]
---
header: 
  seq: 54
  stamp: 
    secs: 1679377099
    nsecs: 232655286
  frame_id: "imu_frame"
orientation: 
  x: 0.0
  y: 0.0
  z: 0.0
  w: 0.0
orientation_covariance: [-1.0, 0.0, 0.0, 0.0, 0.0, 0.0, 0.0, 0.0, 0.0]
angular_velocity: 
  x: 0.006977063179016113
  y: -0.000196177291870117
  z: -0.000739637756347656
angular_velocity_covariance: [0.01, 0.0, 0.0, 0.0, 0.01, 0.0, 0.0, 0.0, 0.01]
linear_acceleration: 
  x: 0.061106691360473635
  y: -0.04538384437561035
  z: 9.7999849319458
linear_acceleration_covariance: [0.01, 0.0, 0.0, 0.0, 0.01, 0.0, 0.0, 0.0, 0.01]
---
header: 
  seq: 55
  stamp: 
    secs: 1679377099
    nsecs: 258445739
  frame_id: "imu_frame"
orientation: 
  x: 0.0
  y: 0.0
  z: 0.0
  w: 0.0
orientation_covariance: [-1.0, 0.0, 0.0, 0.0, 0.0, 0.0, 0.0, 0.0, 0.0]
angular_velocity: 
  x: 0.006366198062896728
  y: -0.000196177291870117
  z: -0.000434205389022827
angular_velocity_covariance: [0.01, 0.0, 0.0, 0.0, 0.01, 0.0, 0.0, 0.0, 0.01]
linear_acceleration: 
  x: 0.05213360786437988
  y: -0.058544373512268065
  z: 9.7940034866333
linear_acceleration_covariance: [0.01, 0.0, 0.0, 0.0, 0.01, 0.0, 0.0, 0.0, 0.01]
---
header: 
  seq: 56
  stamp: 
    secs: 1679377099
    nsecs: 284303426
  frame_id: "imu_frame"
orientation: 
  x: 0.0
  y: 0.0
  z: 0.0
  w: 0.0
orientation_covariance: [-1.0, 0.0, 0.0, 0.0, 0.0, 0.0, 0.0, 0.0, 0.0]
angular_velocity: 
  x: 0.005449899673461914
  y: -0.000348893451690673
  z: -0.000739637756347656
angular_velocity_covariance: [0.01, 0.0, 0.0, 0.0, 0.01, 0.0, 0.0, 0.0, 0.01]
linear_acceleration: 
  x: 0.0575174617767334
  y: -0.051964111328125
  z: 9.80417251586914
linear_acceleration_covariance: [0.01, 0.0, 0.0, 0.0, 0.01, 0.0, 0.0, 0.0, 0.01]
---
header: 
  seq: 57
  stamp: 
    secs: 1679377099
    nsecs: 310409784
  frame_id: "imu_frame"
orientation: 
  x: 0.0
  y: 0.0
  z: 0.0
  w: 0.0
orientation_covariance: [-1.0, 0.0, 0.0, 0.0, 0.0, 0.0, 0.0, 0.0, 0.0]
angular_velocity: 
  x: 0.006366198062896728
  y: -0.000807042217254638
  z: -0.00135050344467163
angular_velocity_covariance: [0.01, 0.0, 0.0, 0.0, 0.01, 0.0, 0.0, 0.0, 0.01]
linear_acceleration: 
  x: 0.0515354061126709
  y: -0.05076770305633545
  z: 9.797592163085938
linear_acceleration_covariance: [0.01, 0.0, 0.0, 0.0, 0.01, 0.0, 0.0, 0.0, 0.01]
---
header: 
  seq: 58
  stamp: 
    secs: 1679377099
    nsecs: 341763734
  frame_id: "imu_frame"
orientation: 
  x: 0.0
  y: 0.0
  z: 0.0
  w: 0.0
orientation_covariance: [-1.0, 0.0, 0.0, 0.0, 0.0, 0.0, 0.0, 0.0, 0.0]
angular_velocity: 
  x: 0.005449899673461914
  y: 0.000414688158035278
  z: -0.000739637756347656
angular_velocity_covariance: [0.01, 0.0, 0.0, 0.0, 0.01, 0.0, 0.0, 0.0, 0.01]
linear_acceleration: 
  x: 0.05572284698486328
  y: -0.04179461479187012
  z: 9.795797348022461
linear_acceleration_covariance: [0.01, 0.0, 0.0, 0.0, 0.01, 0.0, 0.0, 0.0, 0.01]
---
header: 
  seq: 59
  stamp: 
    secs: 1679377099
    nsecs: 362523794
  frame_id: "imu_frame"
orientation: 
  x: 0.0
  y: 0.0
  z: 0.0
  w: 0.0
orientation_covariance: [-1.0, 0.0, 0.0, 0.0, 0.0, 0.0, 0.0, 0.0, 0.0]
angular_velocity: 
  x: 0.006977063179016113
  y: 0.001025553345680236
  z: -0.000739637756347656
angular_velocity_covariance: [0.01, 0.0, 0.0, 0.0, 0.01, 0.0, 0.0, 0.0, 0.01]
linear_acceleration: 
  x: 0.05213360786437988
  y: -0.05375872611999512
  z: 9.789216995239258
linear_acceleration_covariance: [0.01, 0.0, 0.0, 0.0, 0.01, 0.0, 0.0, 0.0, 0.01]
---
header: 
  seq: 60
  stamp: 
    secs: 1679377099
    nsecs: 388040781
  frame_id: "imu_frame"
orientation: 
  x: 0.0
  y: 0.0
  z: 0.0
  w: 0.0
orientation_covariance: [-1.0, 0.0, 0.0, 0.0, 0.0, 0.0, 0.0, 0.0, 0.0]
angular_velocity: 
  x: 0.006671630859375
  y: -0.000348893451690673
  z: -0.000586921787261962
angular_velocity_covariance: [0.01, 0.0, 0.0, 0.0, 0.01, 0.0, 0.0, 0.0, 0.01]
linear_acceleration: 
  x: 0.058115668296813965
  y: -0.051964111328125
  z: 9.791011810302734
linear_acceleration_covariance: [0.01, 0.0, 0.0, 0.0, 0.01, 0.0, 0.0, 0.0, 0.01]
---
header: 
  seq: 61
  stamp: 
    secs: 1679377099
    nsecs: 414289236
  frame_id: "imu_frame"
orientation: 
  x: 0.0
  y: 0.0
  z: 0.0
  w: 0.0
orientation_covariance: [-1.0, 0.0, 0.0, 0.0, 0.0, 0.0, 0.0, 0.0, 0.0]
angular_velocity: 
  x: 0.006671630859375
  y: -0.000501609897613525
  z: -0.001197787046432495
angular_velocity_covariance: [0.01, 0.0, 0.0, 0.0, 0.01, 0.0, 0.0, 0.0, 0.01]
linear_acceleration: 
  x: 0.05333001613616943
  y: -0.049571290016174316
  z: 9.798190116882324
linear_acceleration_covariance: [0.01, 0.0, 0.0, 0.0, 0.01, 0.0, 0.0, 0.0, 0.01]
---
header: 
  seq: 62
  stamp: 
    secs: 1679377099
    nsecs: 440150976
  frame_id: "imu_frame"
orientation: 
  x: 0.0
  y: 0.0
  z: 0.0
  w: 0.0
orientation_covariance: [-1.0, 0.0, 0.0, 0.0, 0.0, 0.0, 0.0, 0.0, 0.0]
angular_velocity: 
  x: 0.006518914699554443
  y: -0.000196177291870117
  z: -0.000586921787261962
angular_velocity_covariance: [0.01, 0.0, 0.0, 0.0, 0.01, 0.0, 0.0, 0.0, 0.01]
linear_acceleration: 
  x: 0.05033898830413818
  y: -0.04538384437561035
  z: 9.792806625366211
linear_acceleration_covariance: [0.01, 0.0, 0.0, 0.0, 0.01, 0.0, 0.0, 0.0, 0.01]
---
header: 
  seq: 63
  stamp: 
    secs: 1679377099
    nsecs: 466515779
  frame_id: "imu_frame"
orientation: 
  x: 0.0
  y: 0.0
  z: 0.0
  w: 0.0
orientation_covariance: [-1.0, 0.0, 0.0, 0.0, 0.0, 0.0, 0.0, 0.0, 0.0]
angular_velocity: 
  x: 0.006671630859375
  y: -4.3460869789123e-05
  z: -0.001045070648193359
angular_velocity_covariance: [0.01, 0.0, 0.0, 0.0, 0.01, 0.0, 0.0, 0.0, 0.01]
linear_acceleration: 
  x: 0.05093719959259033
  y: -0.06033899307250976
  z: 9.793404579162598
linear_acceleration_covariance: [0.01, 0.0, 0.0, 0.0, 0.01, 0.0, 0.0, 0.0, 0.01]
---
header: 
  seq: 64
  stamp: 
    secs: 1679377099
    nsecs: 491934299
  frame_id: "imu_frame"
orientation: 
  x: 0.0
  y: 0.0
  z: 0.0
  w: 0.0
orientation_covariance: [-1.0, 0.0, 0.0, 0.0, 0.0, 0.0, 0.0, 0.0, 0.0]
angular_velocity: 
  x: 0.006824345588684082
  y: -0.000196177291870117
  z: -0.000739637756347656
angular_velocity_covariance: [0.01, 0.0, 0.0, 0.0, 0.01, 0.0, 0.0, 0.0, 0.01]
linear_acceleration: 
  x: 0.06708875179290771
  y: -0.051365904808044434
  z: 9.792806625366211
linear_acceleration_covariance: [0.01, 0.0, 0.0, 0.0, 0.01, 0.0, 0.0, 0.0, 0.01]
---
header: 
  seq: 65
  stamp: 
    secs: 1679377099
    nsecs: 518012046
  frame_id: "imu_frame"
orientation: 
  x: 0.0
  y: 0.0
  z: 0.0
  w: 0.0
orientation_covariance: [-1.0, 0.0, 0.0, 0.0, 0.0, 0.0, 0.0, 0.0, 0.0]
angular_velocity: 
  x: 0.005297183990478515
  y: -0.000501609897613525
  z: -0.000739637756347656
angular_velocity_covariance: [0.01, 0.0, 0.0, 0.0, 0.01, 0.0, 0.0, 0.0, 0.01]
linear_acceleration: 
  x: 0.04854437828063965
  y: -0.049571290016174316
  z: 9.792806625366211
linear_acceleration_covariance: [0.01, 0.0, 0.0, 0.0, 0.01, 0.0, 0.0, 0.0, 0.01]
---
header: 
  seq: 66
  stamp: 
    secs: 1679377099
    nsecs: 544013738
  frame_id: "imu_frame"
orientation: 
  x: 0.0
  y: 0.0
  z: 0.0
  w: 0.0
orientation_covariance: [-1.0, 0.0, 0.0, 0.0, 0.0, 0.0, 0.0, 0.0, 0.0]
angular_velocity: 
  x: 0.007893361091613768
  y: -4.3460869789123e-05
  z: -0.001503219842910766
angular_velocity_covariance: [0.01, 0.0, 0.0, 0.0, 0.01, 0.0, 0.0, 0.0, 0.01]
linear_acceleration: 
  x: 0.06349951744079589
  y: -0.05914258480072022
  z: 9.785029411315918
linear_acceleration_covariance: [0.01, 0.0, 0.0, 0.0, 0.01, 0.0, 0.0, 0.0, 0.01]
---
header: 
  seq: 67
  stamp: 
    secs: 1679377099
    nsecs: 569890737
  frame_id: "imu_frame"
orientation: 
  x: 0.0
  y: 0.0
  z: 0.0
  w: 0.0
orientation_covariance: [-1.0, 0.0, 0.0, 0.0, 0.0, 0.0, 0.0, 0.0, 0.0]
angular_velocity: 
  x: 0.006060764789581298
  y: 0.000109255540847778
  z: -0.001045070648193359
angular_velocity_covariance: [0.01, 0.0, 0.0, 0.0, 0.01, 0.0, 0.0, 0.0, 0.01]
linear_acceleration: 
  x: 0.05033898830413818
  y: -0.054356932640075684
  z: 9.790413856506348
linear_acceleration_covariance: [0.01, 0.0, 0.0, 0.0, 0.01, 0.0, 0.0, 0.0, 0.01]
---
header: 
  seq: 68
  stamp: 
    secs: 1679377099
    nsecs: 596009969
  frame_id: "imu_frame"
orientation: 
  x: 0.0
  y: 0.0
  z: 0.0
  w: 0.0
orientation_covariance: [-1.0, 0.0, 0.0, 0.0, 0.0, 0.0, 0.0, 0.0, 0.0]
angular_velocity: 
  x: 0.005755333423614501
  y: -0.000196177291870117
  z: -0.001503219842910766
angular_velocity_covariance: [0.01, 0.0, 0.0, 0.0, 0.01, 0.0, 0.0, 0.0, 0.01]
linear_acceleration: 
  x: 0.055124635696411135
  y: -0.0675174617767334
  z: 9.80118179321289
linear_acceleration_covariance: [0.01, 0.0, 0.0, 0.0, 0.01, 0.0, 0.0, 0.0, 0.01]
---
header: 
  seq: 69
  stamp: 
    secs: 1679377099
    nsecs: 621791124
  frame_id: "imu_frame"
orientation: 
  x: 0.0
  y: 0.0
  z: 0.0
  w: 0.0
orientation_covariance: [-1.0, 0.0, 0.0, 0.0, 0.0, 0.0, 0.0, 0.0, 0.0]
angular_velocity: 
  x: 0.005908048629760742
  y: -4.3460869789123e-05
  z: -0.000892354583740234
angular_velocity_covariance: [0.01, 0.0, 0.0, 0.0, 0.01, 0.0, 0.0, 0.0, 0.01]
linear_acceleration: 
  x: 0.055124635696411135
  y: -0.06691925525665283
  z: 9.785628318786621
linear_acceleration_covariance: [0.01, 0.0, 0.0, 0.0, 0.01, 0.0, 0.0, 0.0, 0.01]
---
header: 
  seq: 70
  stamp: 
    secs: 1679377099
    nsecs: 648959636
  frame_id: "imu_frame"
orientation: 
  x: 0.0
  y: 0.0
  z: 0.0
  w: 0.0
orientation_covariance: [-1.0, 0.0, 0.0, 0.0, 0.0, 0.0, 0.0, 0.0, 0.0]
angular_velocity: 
  x: 0.006366198062896728
  y: -0.000196177291870117
  z: -0.000586921787261962
angular_velocity_covariance: [0.01, 0.0, 0.0, 0.0, 0.01, 0.0, 0.0, 0.0, 0.01]
linear_acceleration: 
  x: 0.058115668296813965
  y: -0.04299102783203125
  z: 9.799386978149414
linear_acceleration_covariance: [0.01, 0.0, 0.0, 0.0, 0.01, 0.0, 0.0, 0.0, 0.01]
---
header: 
  seq: 71
  stamp: 
    secs: 1679377099
    nsecs: 673627376
  frame_id: "imu_frame"
orientation: 
  x: 0.0
  y: 0.0
  z: 0.0
  w: 0.0
orientation_covariance: [-1.0, 0.0, 0.0, 0.0, 0.0, 0.0, 0.0, 0.0, 0.0]
angular_velocity: 
  x: 0.006213481426239013
  y: -0.000807042217254638
  z: -0.000739637756347656
angular_velocity_covariance: [0.01, 0.0, 0.0, 0.0, 0.01, 0.0, 0.0, 0.0, 0.01]
linear_acceleration: 
  x: 0.06768694877624512
  y: -0.054356932640075684
  z: 9.791011810302734
linear_acceleration_covariance: [0.01, 0.0, 0.0, 0.0, 0.01, 0.0, 0.0, 0.0, 0.01]
---
header: 
  seq: 72
  stamp: 
    secs: 1679377099
    nsecs: 700057268
  frame_id: "imu_frame"
orientation: 
  x: 0.0
  y: 0.0
  z: 0.0
  w: 0.0
orientation_covariance: [-1.0, 0.0, 0.0, 0.0, 0.0, 0.0, 0.0, 0.0, 0.0]
angular_velocity: 
  x: 0.006518914699554443
  y: -0.000654326057434082
  z: -0.000434205389022827
angular_velocity_covariance: [0.01, 0.0, 0.0, 0.0, 0.01, 0.0, 0.0, 0.0, 0.01]
linear_acceleration: 
  x: 0.052731809616088865
  y: -0.055553345680236815
  z: 9.79699420928955
linear_acceleration_covariance: [0.01, 0.0, 0.0, 0.0, 0.01, 0.0, 0.0, 0.0, 0.01]
---
header: 
  seq: 73
  stamp: 
    secs: 1679377099
    nsecs: 725536823
  frame_id: "imu_frame"
orientation: 
  x: 0.0
  y: 0.0
  z: 0.0
  w: 0.0
orientation_covariance: [-1.0, 0.0, 0.0, 0.0, 0.0, 0.0, 0.0, 0.0, 0.0]
angular_velocity: 
  x: 0.006213481426239013
  y: 0.000261971712112426
  z: -0.000739637756347656
angular_velocity_covariance: [0.01, 0.0, 0.0, 0.0, 0.01, 0.0, 0.0, 0.0, 0.01]
linear_acceleration: 
  x: 0.06230311393737793
  y: -0.05495513916015625
  z: 9.789815902709961
linear_acceleration_covariance: [0.01, 0.0, 0.0, 0.0, 0.01, 0.0, 0.0, 0.0, 0.01]
---
header: 
  seq: 74
  stamp: 
    secs: 1679377099
    nsecs: 752762317
  frame_id: "imu_frame"
orientation: 
  x: 0.0
  y: 0.0
  z: 0.0
  w: 0.0
orientation_covariance: [-1.0, 0.0, 0.0, 0.0, 0.0, 0.0, 0.0, 0.0, 0.0]
angular_velocity: 
  x: 0.005755333423614501
  y: -0.000654326057434082
  z: -0.001197787046432495
angular_velocity_covariance: [0.01, 0.0, 0.0, 0.0, 0.01, 0.0, 0.0, 0.0, 0.01]
linear_acceleration: 
  x: 0.05572284698486328
  y: -0.05316052436828613
  z: 9.795199394226074
linear_acceleration_covariance: [0.01, 0.0, 0.0, 0.0, 0.01, 0.0, 0.0, 0.0, 0.01]
---
header: 
  seq: 75
  stamp: 
    secs: 1679377099
    nsecs: 777475595
  frame_id: "imu_frame"
orientation: 
  x: 0.0
  y: 0.0
  z: 0.0
  w: 0.0
orientation_covariance: [-1.0, 0.0, 0.0, 0.0, 0.0, 0.0, 0.0, 0.0, 0.0]
angular_velocity: 
  x: 0.005449899673461914
  y: -0.000348893451690673
  z: -0.000128772568702697
angular_velocity_covariance: [0.01, 0.0, 0.0, 0.0, 0.01, 0.0, 0.0, 0.0, 0.01]
linear_acceleration: 
  x: 0.036580262184143064
  y: -0.05076770305633545
  z: 9.791610717773438
linear_acceleration_covariance: [0.01, 0.0, 0.0, 0.0, 0.01, 0.0, 0.0, 0.0, 0.01]
---
header: 
  seq: 76
  stamp: 
    secs: 1679377099
    nsecs: 803657770
  frame_id: "imu_frame"
orientation: 
  x: 0.0
  y: 0.0
  z: 0.0
  w: 0.0
orientation_covariance: [-1.0, 0.0, 0.0, 0.0, 0.0, 0.0, 0.0, 0.0, 0.0]
angular_velocity: 
  x: 0.006213481426239013
  y: 0.000109255540847778
  z: -0.000128772568702697
angular_velocity_covariance: [0.01, 0.0, 0.0, 0.0, 0.01, 0.0, 0.0, 0.0, 0.01]
linear_acceleration: 
  x: 0.05213360786437988
  y: -0.05375872611999512
  z: 9.7999849319458
linear_acceleration_covariance: [0.01, 0.0, 0.0, 0.0, 0.01, 0.0, 0.0, 0.0, 0.01]
---
header: 
  seq: 77
  stamp: 
    secs: 1679377099
    nsecs: 829713582
  frame_id: "imu_frame"
orientation: 
  x: 0.0
  y: 0.0
  z: 0.0
  w: 0.0
orientation_covariance: [-1.0, 0.0, 0.0, 0.0, 0.0, 0.0, 0.0, 0.0, 0.0]
angular_velocity: 
  x: 0.006671630859375
  y: -0.000196177291870117
  z: -0.000586921787261962
angular_velocity_covariance: [0.01, 0.0, 0.0, 0.0, 0.01, 0.0, 0.0, 0.0, 0.01]
linear_acceleration: 
  x: 0.04016949653625488
  y: -0.0597407865524292
  z: 9.793404579162598
linear_acceleration_covariance: [0.01, 0.0, 0.0, 0.0, 0.01, 0.0, 0.0, 0.0, 0.01]
---
header: 
  seq: 78
  stamp: 
    secs: 1679377099
    nsecs: 856092214
  frame_id: "imu_frame"
orientation: 
  x: 0.0
  y: 0.0
  z: 0.0
  w: 0.0
orientation_covariance: [-1.0, 0.0, 0.0, 0.0, 0.0, 0.0, 0.0, 0.0, 0.0]
angular_velocity: 
  x: 0.006213481426239013
  y: 0.000261971712112426
  z: -0.000434205389022827
angular_velocity_covariance: [0.01, 0.0, 0.0, 0.0, 0.01, 0.0, 0.0, 0.0, 0.01]
linear_acceleration: 
  x: 0.05452643394470215
  y: -0.056749763488769533
  z: 9.792208671569824
linear_acceleration_covariance: [0.01, 0.0, 0.0, 0.0, 0.01, 0.0, 0.0, 0.0, 0.01]
---
header: 
  seq: 79
  stamp: 
    secs: 1679377099
    nsecs: 881781816
  frame_id: "imu_frame"
orientation: 
  x: 0.0
  y: 0.0
  z: 0.0
  w: 0.0
orientation_covariance: [-1.0, 0.0, 0.0, 0.0, 0.0, 0.0, 0.0, 0.0, 0.0]
angular_velocity: 
  x: 0.006213481426239013
  y: 0.000109255540847778
  z: -0.000281488990783691
angular_velocity_covariance: [0.01, 0.0, 0.0, 0.0, 0.01, 0.0, 0.0, 0.0, 0.01]
linear_acceleration: 
  x: 0.05991028785705566
  y: -0.049571290016174316
  z: 9.7940034866333
linear_acceleration_covariance: [0.01, 0.0, 0.0, 0.0, 0.01, 0.0, 0.0, 0.0, 0.01]
---
header: 
  seq: 80
  stamp: 
    secs: 1679377099
    nsecs: 907560110
  frame_id: "imu_frame"
orientation: 
  x: 0.0
  y: 0.0
  z: 0.0
  w: 0.0
orientation_covariance: [-1.0, 0.0, 0.0, 0.0, 0.0, 0.0, 0.0, 0.0, 0.0]
angular_velocity: 
  x: 0.006060764789581298
  y: -0.000348893451690673
  z: -0.000281488990783691
angular_velocity_covariance: [0.01, 0.0, 0.0, 0.0, 0.01, 0.0, 0.0, 0.0, 0.01]
linear_acceleration: 
  x: 0.06469593048095704
  y: -0.0459820556640625
  z: 9.804770469665527
linear_acceleration_covariance: [0.01, 0.0, 0.0, 0.0, 0.01, 0.0, 0.0, 0.0, 0.01]
---
header: 
  seq: 81
  stamp: 
    secs: 1679377099
    nsecs: 933777093
  frame_id: "imu_frame"
orientation: 
  x: 0.0
  y: 0.0
  z: 0.0
  w: 0.0
orientation_covariance: [-1.0, 0.0, 0.0, 0.0, 0.0, 0.0, 0.0, 0.0, 0.0]
angular_velocity: 
  x: 0.006060764789581298
  y: -0.000196177291870117
  z: -0.001197787046432495
angular_velocity_covariance: [0.01, 0.0, 0.0, 0.0, 0.01, 0.0, 0.0, 0.0, 0.01]
linear_acceleration: 
  x: 0.047946171760559084
  y: -0.04777667045593262
  z: 9.784432411193848
linear_acceleration_covariance: [0.01, 0.0, 0.0, 0.0, 0.01, 0.0, 0.0, 0.0, 0.01]
---
header: 
  seq: 82
  stamp: 
    secs: 1679377099
    nsecs: 959314584
  frame_id: "imu_frame"
orientation: 
  x: 0.0
  y: 0.0
  z: 0.0
  w: 0.0
orientation_covariance: [-1.0, 0.0, 0.0, 0.0, 0.0, 0.0, 0.0, 0.0, 0.0]
angular_velocity: 
  x: 0.006977063179016113
  y: 0.000261971712112426
  z: -0.001045070648193359
angular_velocity_covariance: [0.01, 0.0, 0.0, 0.0, 0.01, 0.0, 0.0, 0.0, 0.01]
linear_acceleration: 
  x: 0.04495513916015625
  y: -0.06392822265625
  z: 9.798788070678711
linear_acceleration_covariance: [0.01, 0.0, 0.0, 0.0, 0.01, 0.0, 0.0, 0.0, 0.01]
---
header: 
  seq: 83
  stamp: 
    secs: 1679377099
    nsecs: 985477209
  frame_id: "imu_frame"
orientation: 
  x: 0.0
  y: 0.0
  z: 0.0
  w: 0.0
orientation_covariance: [-1.0, 0.0, 0.0, 0.0, 0.0, 0.0, 0.0, 0.0, 0.0]
angular_velocity: 
  x: 0.006366198062896728
  y: 0.000261971712112426
  z: -0.000892354583740234
angular_velocity_covariance: [0.01, 0.0, 0.0, 0.0, 0.01, 0.0, 0.0, 0.0, 0.01]
linear_acceleration: 
  x: 0.05213360786437988
  y: -0.04717846393585205
  z: 9.789815902709961
linear_acceleration_covariance: [0.01, 0.0, 0.0, 0.0, 0.01, 0.0, 0.0, 0.0, 0.01]
---
header: 
  seq: 84
  stamp: 
    secs: 1679377100
    nsecs:  11228084
  frame_id: "imu_frame"
orientation: 
  x: 0.0
  y: 0.0
  z: 0.0
  w: 0.0
orientation_covariance: [-1.0, 0.0, 0.0, 0.0, 0.0, 0.0, 0.0, 0.0, 0.0]
angular_velocity: 
  x: 0.007129779338836669
  y: -4.3460869789123e-05
  z: -0.00135050344467163
angular_velocity_covariance: [0.01, 0.0, 0.0, 0.0, 0.01, 0.0, 0.0, 0.0, 0.01]
linear_acceleration: 
  x: 0.05691925048828125
  y: -0.056749763488769533
  z: 9.798788070678711
linear_acceleration_covariance: [0.01, 0.0, 0.0, 0.0, 0.01, 0.0, 0.0, 0.0, 0.01]
---
header: 
  seq: 85
  stamp: 
    secs: 1679377100
    nsecs:  37281751
  frame_id: "imu_frame"
orientation: 
  x: 0.0
  y: 0.0
  z: 0.0
  w: 0.0
orientation_covariance: [-1.0, 0.0, 0.0, 0.0, 0.0, 0.0, 0.0, 0.0, 0.0]
angular_velocity: 
  x: 0.005755333423614501
  y: -0.001112474918365478
  z: -0.000739637756347656
angular_velocity_covariance: [0.01, 0.0, 0.0, 0.0, 0.01, 0.0, 0.0, 0.0, 0.01]
linear_acceleration: 
  x: 0.058115668296813965
  y: -0.051964111328125
  z: 9.789216995239258
linear_acceleration_covariance: [0.01, 0.0, 0.0, 0.0, 0.01, 0.0, 0.0, 0.0, 0.01]
---
header: 
  seq: 86
  stamp: 
    secs: 1679377100
    nsecs:  63136577
  frame_id: "imu_frame"
orientation: 
  x: 0.0
  y: 0.0
  z: 0.0
  w: 0.0
orientation_covariance: [-1.0, 0.0, 0.0, 0.0, 0.0, 0.0, 0.0, 0.0, 0.0]
angular_velocity: 
  x: 0.006366198062896728
  y: -4.3460869789123e-05
  z: -0.000586921787261962
angular_velocity_covariance: [0.01, 0.0, 0.0, 0.0, 0.01, 0.0, 0.0, 0.0, 0.01]
linear_acceleration: 
  x: 0.03837487697601318
  y: -0.054356932640075684
  z: 9.786824226379395
linear_acceleration_covariance: [0.01, 0.0, 0.0, 0.0, 0.01, 0.0, 0.0, 0.0, 0.01]
---
header: 
  seq: 87
  stamp: 
    secs: 1679377100
    nsecs:  89097499
  frame_id: "imu_frame"
orientation: 
  x: 0.0
  y: 0.0
  z: 0.0
  w: 0.0
orientation_covariance: [-1.0, 0.0, 0.0, 0.0, 0.0, 0.0, 0.0, 0.0, 0.0]
angular_velocity: 
  x: 0.006060764789581298
  y: 0.000109255540847778
  z: -0.000892354583740234
angular_velocity_covariance: [0.01, 0.0, 0.0, 0.0, 0.01, 0.0, 0.0, 0.0, 0.01]
linear_acceleration: 
  x: 0.0575174617767334
  y: -0.0579461669921875
  z: 9.792208671569824
linear_acceleration_covariance: [0.01, 0.0, 0.0, 0.0, 0.01, 0.0, 0.0, 0.0, 0.01]
---
header: 
  seq: 88
  stamp: 
    secs: 1679377100
    nsecs: 115181207
  frame_id: "imu_frame"
orientation: 
  x: 0.0
  y: 0.0
  z: 0.0
  w: 0.0
orientation_covariance: [-1.0, 0.0, 0.0, 0.0, 0.0, 0.0, 0.0, 0.0, 0.0]
angular_velocity: 
  x: 0.006824345588684082
  y: 0.000261971712112426
  z: -0.00135050344467163
angular_velocity_covariance: [0.01, 0.0, 0.0, 0.0, 0.01, 0.0, 0.0, 0.0, 0.01]
linear_acceleration: 
  x: 0.05093719959259033
  y: -0.048374881744384764
  z: 9.783833503723145
linear_acceleration_covariance: [0.01, 0.0, 0.0, 0.0, 0.01, 0.0, 0.0, 0.0, 0.01]
---
header: 
  seq: 89
  stamp: 
    secs: 1679377100
    nsecs: 140620946
  frame_id: "imu_frame"
orientation: 
  x: 0.0
  y: 0.0
  z: 0.0
  w: 0.0
orientation_covariance: [-1.0, 0.0, 0.0, 0.0, 0.0, 0.0, 0.0, 0.0, 0.0]
angular_velocity: 
  x: 0.006518914699554443
  y: 0.000414688158035278
  z: 0.000176659798622131
angular_velocity_covariance: [0.01, 0.0, 0.0, 0.0, 0.01, 0.0, 0.0, 0.0, 0.01]
linear_acceleration: 
  x: 0.06050848960876465
  y: -0.04777667045593262
  z: 9.789815902709961
linear_acceleration_covariance: [0.01, 0.0, 0.0, 0.0, 0.01, 0.0, 0.0, 0.0, 0.01]
---
header: 
  seq: 90
  stamp: 
    secs: 1679377100
    nsecs: 166466236
  frame_id: "imu_frame"
orientation: 
  x: 0.0
  y: 0.0
  z: 0.0
  w: 0.0
orientation_covariance: [-1.0, 0.0, 0.0, 0.0, 0.0, 0.0, 0.0, 0.0, 0.0]
angular_velocity: 
  x: 0.006824345588684082
  y: -4.3460869789123e-05
  z: -0.000739637756347656
angular_velocity_covariance: [0.01, 0.0, 0.0, 0.0, 0.01, 0.0, 0.0, 0.0, 0.01]
linear_acceleration: 
  x: 0.04854437828063965
  y: -0.049571290016174316
  z: 9.79699420928955
linear_acceleration_covariance: [0.01, 0.0, 0.0, 0.0, 0.01, 0.0, 0.0, 0.0, 0.01]
---
header: 
  seq: 91
  stamp: 
    secs: 1679377100
    nsecs: 192415714
  frame_id: "imu_frame"
orientation: 
  x: 0.0
  y: 0.0
  z: 0.0
  w: 0.0
orientation_covariance: [-1.0, 0.0, 0.0, 0.0, 0.0, 0.0, 0.0, 0.0, 0.0]
angular_velocity: 
  x: 0.005449899673461914
  y: -4.3460869789123e-05
  z: -0.00135050344467163
angular_velocity_covariance: [0.01, 0.0, 0.0, 0.0, 0.01, 0.0, 0.0, 0.0, 0.01]
linear_acceleration: 
  x: 0.0515354061126709
  y: -0.04478564739227295
  z: 9.80118179321289
linear_acceleration_covariance: [0.01, 0.0, 0.0, 0.0, 0.01, 0.0, 0.0, 0.0, 0.01]
---
header: 
  seq: 92
  stamp: 
    secs: 1679377100
    nsecs: 218319177
  frame_id: "imu_frame"
orientation: 
  x: 0.0
  y: 0.0
  z: 0.0
  w: 0.0
orientation_covariance: [-1.0, 0.0, 0.0, 0.0, 0.0, 0.0, 0.0, 0.0, 0.0]
angular_velocity: 
  x: 0.007282495498657226
  y: -4.3460869789123e-05
  z: -0.000739637756347656
angular_velocity_covariance: [0.01, 0.0, 0.0, 0.0, 0.01, 0.0, 0.0, 0.0, 0.01]
linear_acceleration: 
  x: 0.03837487697601318
  y: -0.0615354061126709
  z: 9.788619995117188
linear_acceleration_covariance: [0.01, 0.0, 0.0, 0.0, 0.01, 0.0, 0.0, 0.0, 0.01]
---
header: 
  seq: 93
  stamp: 
    secs: 1679377100
    nsecs: 244371414
  frame_id: "imu_frame"
orientation: 
  x: 0.0
  y: 0.0
  z: 0.0
  w: 0.0
orientation_covariance: [-1.0, 0.0, 0.0, 0.0, 0.0, 0.0, 0.0, 0.0, 0.0]
angular_velocity: 
  x: 0.006824345588684082
  y: -0.000196177291870117
  z: -0.001045070648193359
angular_velocity_covariance: [0.01, 0.0, 0.0, 0.0, 0.01, 0.0, 0.0, 0.0, 0.01]
linear_acceleration: 
  x: 0.04854437828063965
  y: -0.04717846393585205
  z: 9.792208671569824
linear_acceleration_covariance: [0.01, 0.0, 0.0, 0.0, 0.01, 0.0, 0.0, 0.0, 0.01]
---
header: 
  seq: 94
  stamp: 
    secs: 1679377100
    nsecs: 270247459
  frame_id: "imu_frame"
orientation: 
  x: 0.0
  y: 0.0
  z: 0.0
  w: 0.0
orientation_covariance: [-1.0, 0.0, 0.0, 0.0, 0.0, 0.0, 0.0, 0.0, 0.0]
angular_velocity: 
  x: 0.006213481426239013
  y: -4.3460869789123e-05
  z: -0.000281488990783691
angular_velocity_covariance: [0.01, 0.0, 0.0, 0.0, 0.01, 0.0, 0.0, 0.0, 0.01]
linear_acceleration: 
  x: 0.05213360786437988
  y: -0.043589234352111816
  z: 9.779645919799805
linear_acceleration_covariance: [0.01, 0.0, 0.0, 0.0, 0.01, 0.0, 0.0, 0.0, 0.01]
---
header: 
  seq: 95
  stamp: 
    secs: 1679377100
    nsecs: 296834230
  frame_id: "imu_frame"
orientation: 
  x: 0.0
  y: 0.0
  z: 0.0
  w: 0.0
orientation_covariance: [-1.0, 0.0, 0.0, 0.0, 0.0, 0.0, 0.0, 0.0, 0.0]
angular_velocity: 
  x: 0.006366198062896728
  y: 0.000109255540847778
  z: -0.000739637756347656
angular_velocity_covariance: [0.01, 0.0, 0.0, 0.0, 0.01, 0.0, 0.0, 0.0, 0.01]
linear_acceleration: 
  x: 0.04016949653625488
  y: -0.055553345680236815
  z: 9.793404579162598
linear_acceleration_covariance: [0.01, 0.0, 0.0, 0.0, 0.01, 0.0, 0.0, 0.0, 0.01]
---
header: 
  seq: 96
  stamp: 
    secs: 1679377100
    nsecs: 322155475
  frame_id: "imu_frame"
orientation: 
  x: 0.0
  y: 0.0
  z: 0.0
  w: 0.0
orientation_covariance: [-1.0, 0.0, 0.0, 0.0, 0.0, 0.0, 0.0, 0.0, 0.0]
angular_velocity: 
  x: 0.006060764789581298
  y: 0.000261971712112426
  z: -0.001045070648193359
angular_velocity_covariance: [0.01, 0.0, 0.0, 0.0, 0.01, 0.0, 0.0, 0.0, 0.01]
linear_acceleration: 
  x: 0.04495513916015625
  y: -0.05495513916015625
  z: 9.786824226379395
linear_acceleration_covariance: [0.01, 0.0, 0.0, 0.0, 0.01, 0.0, 0.0, 0.0, 0.01]
---
header: 
  seq: 97
  stamp: 
    secs: 1679377100
    nsecs: 348277568
  frame_id: "imu_frame"
orientation: 
  x: 0.0
  y: 0.0
  z: 0.0
  w: 0.0
orientation_covariance: [-1.0, 0.0, 0.0, 0.0, 0.0, 0.0, 0.0, 0.0, 0.0]
angular_velocity: 
  x: 0.006824345588684082
  y: 0.000414688158035278
  z: -0.000739637756347656
angular_velocity_covariance: [0.01, 0.0, 0.0, 0.0, 0.01, 0.0, 0.0, 0.0, 0.01]
linear_acceleration: 
  x: 0.05632104873657227
  y: -0.051964111328125
  z: 9.790413856506348
linear_acceleration_covariance: [0.01, 0.0, 0.0, 0.0, 0.01, 0.0, 0.0, 0.0, 0.01]
---
header: 
  seq: 98
  stamp: 
    secs: 1679377100
    nsecs: 374218463
  frame_id: "imu_frame"
orientation: 
  x: 0.0
  y: 0.0
  z: 0.0
  w: 0.0
orientation_covariance: [-1.0, 0.0, 0.0, 0.0, 0.0, 0.0, 0.0, 0.0, 0.0]
angular_velocity: 
  x: 0.006518914699554443
  y: -0.000501609897613525
  z: -0.000892354583740234
angular_velocity_covariance: [0.01, 0.0, 0.0, 0.0, 0.01, 0.0, 0.0, 0.0, 0.01]
linear_acceleration: 
  x: 0.04674975872039795
  y: -0.04717846393585205
  z: 9.780841827392578
linear_acceleration_covariance: [0.01, 0.0, 0.0, 0.0, 0.01, 0.0, 0.0, 0.0, 0.01]
---
header: 
  seq: 99
  stamp: 
    secs: 1679377100
    nsecs: 400408744
  frame_id: "imu_frame"
orientation: 
  x: 0.0
  y: 0.0
  z: 0.0
  w: 0.0
orientation_covariance: [-1.0, 0.0, 0.0, 0.0, 0.0, 0.0, 0.0, 0.0, 0.0]
angular_velocity: 
  x: 0.005602616786956787
  y: 0.000109255540847778
  z: -0.000892354583740234
angular_velocity_covariance: [0.01, 0.0, 0.0, 0.0, 0.01, 0.0, 0.0, 0.0, 0.01]
linear_acceleration: 
  x: 0.04136590480804443
  y: -0.048374881744384764
  z: 9.7940034866333
linear_acceleration_covariance: [0.01, 0.0, 0.0, 0.0, 0.01, 0.0, 0.0, 0.0, 0.01]
---
header: 
  seq: 100
  stamp: 
    secs: 1679377100
    nsecs: 426135540
  frame_id: "imu_frame"
orientation: 
  x: 0.0
  y: 0.0
  z: 0.0
  w: 0.0
orientation_covariance: [-1.0, 0.0, 0.0, 0.0, 0.0, 0.0, 0.0, 0.0, 0.0]
angular_velocity: 
  x: 0.005908048629760742
  y: 0.000261971712112426
  z: -0.00135050344467163
angular_velocity_covariance: [0.01, 0.0, 0.0, 0.0, 0.01, 0.0, 0.0, 0.0, 0.01]
linear_acceleration: 
  x: 0.06230311393737793
  y: -0.046580262184143066
  z: 9.789216995239258
linear_acceleration_covariance: [0.01, 0.0, 0.0, 0.0, 0.01, 0.0, 0.0, 0.0, 0.01]
---
header: 
  seq: 101
  stamp: 
    secs: 1679377100
    nsecs: 451831340
  frame_id: "imu_frame"
orientation: 
  x: 0.0
  y: 0.0
  z: 0.0
  w: 0.0
orientation_covariance: [-1.0, 0.0, 0.0, 0.0, 0.0, 0.0, 0.0, 0.0, 0.0]
angular_velocity: 
  x: 0.006824345588684082
  y: 0.000109255540847778
  z: -0.000586921787261962
angular_velocity_covariance: [0.01, 0.0, 0.0, 0.0, 0.01, 0.0, 0.0, 0.0, 0.01]
linear_acceleration: 
  x: 0.05691925048828125
  y: -0.049571290016174316
  z: 9.785628318786621
linear_acceleration_covariance: [0.01, 0.0, 0.0, 0.0, 0.01, 0.0, 0.0, 0.0, 0.01]
---
header: 
  seq: 102
  stamp: 
    secs: 1679377100
    nsecs: 478109598
  frame_id: "imu_frame"
orientation: 
  x: 0.0
  y: 0.0
  z: 0.0
  w: 0.0
orientation_covariance: [-1.0, 0.0, 0.0, 0.0, 0.0, 0.0, 0.0, 0.0, 0.0]
angular_velocity: 
  x: 0.006213481426239013
  y: -4.3460869789123e-05
  z: -0.001045070648193359
angular_velocity_covariance: [0.01, 0.0, 0.0, 0.0, 0.01, 0.0, 0.0, 0.0, 0.01]
linear_acceleration: 
  x: 0.0575174617767334
  y: -0.05495513916015625
  z: 9.792208671569824
linear_acceleration_covariance: [0.01, 0.0, 0.0, 0.0, 0.01, 0.0, 0.0, 0.0, 0.01]
---
header: 
  seq: 103
  stamp: 
    secs: 1679377100
    nsecs: 503760814
  frame_id: "imu_frame"
orientation: 
  x: 0.0
  y: 0.0
  z: 0.0
  w: 0.0
orientation_covariance: [-1.0, 0.0, 0.0, 0.0, 0.0, 0.0, 0.0, 0.0, 0.0]
angular_velocity: 
  x: 0.006671630859375
  y: -0.000501609897613525
  z: -0.000739637756347656
angular_velocity_covariance: [0.01, 0.0, 0.0, 0.0, 0.01, 0.0, 0.0, 0.0, 0.01]
linear_acceleration: 
  x: 0.052731809616088865
  y: -0.0459820556640625
  z: 9.800583839416504
linear_acceleration_covariance: [0.01, 0.0, 0.0, 0.0, 0.01, 0.0, 0.0, 0.0, 0.01]
---
header: 
  seq: 104
  stamp: 
    secs: 1679377100
    nsecs: 530086994
  frame_id: "imu_frame"
orientation: 
  x: 0.0
  y: 0.0
  z: 0.0
  w: 0.0
orientation_covariance: [-1.0, 0.0, 0.0, 0.0, 0.0, 0.0, 0.0, 0.0, 0.0]
angular_velocity: 
  x: 0.006518914699554443
  y: -0.000196177291870117
  z: -0.000739637756347656
angular_velocity_covariance: [0.01, 0.0, 0.0, 0.0, 0.01, 0.0, 0.0, 0.0, 0.01]
linear_acceleration: 
  x: 0.041964111328125
  y: -0.054356932640075684
  z: 9.782038688659668
linear_acceleration_covariance: [0.01, 0.0, 0.0, 0.0, 0.01, 0.0, 0.0, 0.0, 0.01]
---
header: 
  seq: 105
  stamp: 
    secs: 1679377100
    nsecs: 555628061
  frame_id: "imu_frame"
orientation: 
  x: 0.0
  y: 0.0
  z: 0.0
  w: 0.0
orientation_covariance: [-1.0, 0.0, 0.0, 0.0, 0.0, 0.0, 0.0, 0.0, 0.0]
angular_velocity: 
  x: 0.007129779338836669
  y: 0.000261971712112426
  z: -0.000739637756347656
angular_velocity_covariance: [0.01, 0.0, 0.0, 0.0, 0.01, 0.0, 0.0, 0.0, 0.01]
linear_acceleration: 
